lat,lng,property_name
13.8190088,100.5360221,U Delight 2 at Bangsue Station 
13.7503317,100.5555379,Lumpini Suite Phetchaburi - Makkasan 
13.7627824,100.6444637,Ideo Ramkhamhaeng Lamsali Station 
13.7134831,100.5980748,The Nest Sukhumvit 71 
13.7039029,100.6000397,My Condo Sukhumvit 52 
13.7255054,100.5375905,The Legend Saladaeng 
13.730008,100.5720996,Lumpini Suite Sukhumvit 41 
13.7489966,100.6061499,IDEO New Rama 9 
13.7950051,100.5504799,Ideo Mix Phaholyothin 
13.873939,100.597673,Modiz Interchange 
13.7603418,100.5393457,The Extro Phayathai - Rangnam 
13.6857204,100.6220779,ESQUE Sukhumvit 101/1 
13.7255536,100.53145,Klass Silom Condo 
13.8176947,100.5670126,The Line Vibe 
13.7478877,100.5653336,Supalai Premier Asoke 
13.7665252,100.6492301,624 Condolette Ladprao 
13.7791351,100.575858,The Tempo Ratchada 
13.7209805,100.5791088,Ashton Morph 38 
13.6869077,100.606809,The Tree Sukhumvit 64 
13.7356708,100.573371,The Rise Sukhumvit 39 
13.7644052,100.4830752,Aspire Pinklao - ArunAmmarin 
13.805768,100.5320997,Niche Pride Taopoon-Interchange 
13.7083531,100.5927514,Waterford Park Rama 4 
13.8218119,100.6318548,A Space Kaset-Nawamin 
13.7376888,100.5669908,Voque Sukhumvit 31 
13.7248361,100.582661,Avenue 61 
13.8091782,100.5709121,Condo One Ladprao 15 
13.7999099,100.573567,Condo D Ratchada 
13.7376713,100.5792049,Walden Thonglor 13 
13.8363901,100.5742802,Phyll Phahol 34 
13.731226,100.5221252,Supalai Premier Si Phraya - Samyan 
13.7397446,100.5643864,Wind Sukhumvit 23 
13.7356743,100.5677432,Noble Around Sukhumvit 33 
13.7471932,100.558835,Ruamjai Heights 
13.7588324,100.5671935,Siam Condominium 
13.7423665,100.5453461,Tonson One Residence 
13.7305582,100.5878006,Ceil By Sansiri 
13.7323363,100.5746402,Richmond Palace 
13.6564933,100.6344652,The Excel Groove 
13.7508694,100.6064299,Dcondo Ramkhamhaeng 
13.7334618,100.592021,HOLME Ekkamai 22 
13.7902214,100.5474517,The Reserve Phahol-Pradipat 
13.7467345,100.5440417,28 Chidlom 
13.8901022,100.6072222,Episode Phaholyothin - Sapanmai 
13.727769,100.5666355,Pearl Residences Sukhumvit 24 
13.7225893,100.5236848,Pabhada Silom 
13.7920697,100.5036909,De LAPIS Charan 81 
13.7238041,100.526704,Ivy Sathorn 10 
13.712503,100.5490399,Condo One Sathorn 
13.7238216,100.537868,Supalai Icon Sathorn 
13.7080444,100.6016849,The Room Sukhumvit 79 
13.7465478,100.5566247,The Oleander 
13.7296021,100.5841877,The Reserve 61 Hideaway 
13.8312965,100.5688115,Aspire Ratchayothin 
13.858434,100.5865213,Abstracts Phahonyothin Park 
13.6983919,100.6048097,Ideo Sukhumvit 93 
13.778303,100.548447,D'Memoria 
13.7141711,100.5946657,The Bloom Sukhumvit 71 
13.7422597,100.5596365,Noble BE19 
13.7185743,100.5794276,Silver Heritage 
13.8363741,100.5822144,You 2 Condo 
13.7645596,100.5602024,Aspire Asoke-Ratchada 
13.7051139,100.5924413,The BASE Sukhumvit 50 
13.7193005,100.5267258,St. Louis Grand Terrace 
13.7331615,100.570637,Le Raffine Sukhumvit 39 
13.7780132,100.486134,The Parkland Charan - Pinklao 
13.670195,100.6429464,Baan Ruenrom Bangna 
13.7378837,100.5663373,Baan Siri 31 
13.7144805,100.5934944,Sky Walk Residences 
13.7459559,100.569116,Baan Saraan 
13.696744,100.4130115,Niran City Bangkhae 
13.7131084,100.5144593,The Station Sathorn - Bangrak 
13.7185489,100.5904982,Plus 67 
13.718148,100.5510113,The Teak Sathorn-Lumpini 
13.7459958,100.5455597,Somkid Gardens 
13.6724937,100.5440295,S.V. City Rama 3 
13.7631659,100.5691682,Noble Revolve Ratchada 2 
13.754429,100.5641084,Rhythm Asoke 2 
13.8165098,100.534831,Regent Home 20 Prachachuen 16 
13.730524,100.5756169,The 49 Plus 2 
13.7388938,100.6148439,Pattanakarn Life Complex 
13.8277358,100.6753978,Chrisma Condo Ramintra 
13.6553001,100.6465013,Aspen Condo Lasalle 
13.7561839,100.5682693,One 9 Five Asoke - Rama 9 
13.7373657,100.5838911,The Height 
13.8333009,100.5693187,Young Place Grand Le Jardin 
13.7896472,100.5890631,A Space Play 
13.7149786,100.5533441,The Royal Navin Tower 
13.7372943,100.5899595,Tai Ping Towers 
13.8324638,100.6254589,The Unique Kaset-Nawamin 
13.78384,100.70579,Niran Residence 8 
13.7152874,100.447355,THE BASE Phetkasem 
13.7151732,100.5908525,Rhythm Sukhumvit 44/1 
13.723856,100.5663463,Bright Sukhumvit 24 
13.7458972,100.5556716,Circle Sukhumvit 11 
13.8006081,100.5089998,Supalai City Resort Charan 91 
13.7074492,100.4312272,The Lake Kallaprapruk - Wutthakat 
13.7152002,100.6421011,Prima Srinagarindra Condo 
13.8018267,100.5722311,The Unique 19 
13.7520516,100.5340501,The Address Siam-Ratchathewi 
13.7375078,100.5619872,Las Colinas 
13.7430342,100.5711212,Siamese Gioia 
13.805616,100.5731265,The Unique Ladprao 26 
13.730824,100.5864445,Movenpick Residences Ekkamai 
13.7867356,100.5717854,The Kris Extra 5 
13.7874353,100.5581131,Metro Luxe Phaholyothin-Sutthisan 
13.7776259,100.5763759,The Colory Vivid 
13.6602778,100.605897,The Excel Hybrid 
13.762792,100.5406328,Supreme Condo Ratchawithi 3 
13.8111603,100.5640989,Metris District Ladprao 
13.7227123,100.5387711,Sathorn Gardens 
13.7833618,100.5751635,Life At Ratchada - Huay Kwang 
13.7204667,100.4969842,Fuse Sathorn-Taksin 
13.690333,100.6082146,The Room Sukhumvit 62 
13.715618,100.5078252,Saichol Mansion 
13.7296457,100.5711126,MARQUE Sukhumvit 
13.784213,100.5440174,Centric Place Ari 4-Phaholyothin 
13.7867034,100.5576557,Metro Luxe Rose Gold Phaholyothin - Sutthisan 
13.7404373,100.5572729,Hyde Sukhumvit 13 
13.8091816,100.5590079,Equinox Phahol-Vibha 
13.7677464,100.6148868,Bodin Suite Home 
13.7363666,100.5208251,The Room Rama 4 
13.7396388,100.6027323,U Delight Residence Phatthanakan 
13.7921976,100.5757968,Chateau In Town Ratchada 20-2 
13.7933385,100.5921669,P. Thana Tower 2 
13.8406335,100.5778489,Miti Chiva Kaset Station 
13.7319444,100.5625874,Fairview Tower 
13.7710648,100.614025,Sukhapiban 3 Mansion 
13.7341183,100.4761897,P and S Place 
13.7129825,100.591402,KnightsBridge Space Sukhumvit-Rama 4 
13.8189974,100.7043462,Baan Ua-Athorn Ramintra 117 
13.7219133,100.576476,La Vie En Rose Place 
13.8074213,100.5756538,The Origin Ratchada - Ladprao 
13.7169108,100.5053711,Flexi Sathorn - Charoennakorn 
13.8054716,100.5784872,My Condo Ladprao 27 
13.7747815,100.4851937,Thana Tower 
13.699031,100.4964315,August Condo Charoenkrung 80 
13.7069202,100.4911261,Na Reva Charoennakhon 
13.7313899,100.5235248,Chapter Chula-Samyan 
13.7003241,100.5445968,Siamese Nang Linchee 
13.7225499,100.5259589,Tait 12 
13.7280351,100.5684762,Siri Residence 
13.719841,100.5400773,Supalai Oriental Place Sathorn-Suanplu 
13.8409017,100.5838776,Hesper Red Kaset 
13.7783299,100.5745,Ideo Ratchada-Huaykwang 
13.732188,100.5265177,Wish @ Samyan 
13.723266,100.5833259,The Address Sukhumvit 61 
13.7276547,100.5281612,ITF Silom Palace 
13.7919717,100.659077,Baan Eua Arthorn Buengkum 
13.7161269,100.4807026,The Parkland Grand Taksin 
13.7134118,100.4335319,Origin Place Phetkasem 
13.7072685,100.5978225,The Link 3 
13.7122232,100.6147814,Aspire Sukhumvit-Onnut 
13.7260725,100.5395293,Saladaeng One 
13.7978922,100.5864787,The Revo Ladprao 48 
13.7085357,100.6187882,Baan On Nut Sukhumvit 77 
13.7075988,100.6007253,Q House Condo Sukhumvit 79 
13.7122979,100.4736511,Supalai Park Talat Phlu Station 
13.6856156,100.6119372,Whizdom Inspire Sukhumvit 
13.7172747,100.547411,Baan Siri Sathorn Yenakard 
13.6638302,100.429461,The Bella Condo Rama 2 
13.8064036,100.5726354,Chapter One Midtown Ladprao 24 
13.7016142,100.5359646,Bangkok Garden 
13.7048718,100.6069921,Regent Home 22 Sukhumvit 85 
13.6734912,100.5384584,Sapphire Luxurious Condominium Rama 3 
13.6999565,100.6754809,Prueksa Thani Life Condotel 
13.7369988,100.5846197,Icon III 
13.7491295,100.5438188,Q Chidlom-Phetchaburi 
13.6843344,100.6245615,B Republic 
13.7212221,100.5071709,Urbano Absolute Sathon-Taksin 
13.8411081,100.5721568,Premio Vetro 
13.7409715,100.564437,Rende Sukhumvit 23 
13.7923828,100.5444444,Intro Phaholyothin-Pradipat 
13.7223938,100.5368877,The Reserve Sathorn 
13.7335061,100.5265264,Ideo Q Chula Samyan 
13.7398558,100.572639,Maestro 39 
13.7144925,100.6033164,Park Court Sukhumvit 77 
13.782413,100.671742,I CONDO Sukhapiban 2 
13.753484,100.6307831,Lumpini Ville Ramkhamhaeng 26 
13.8253032,100.5683793,Elephant Tower 
13.7223639,100.50856,The LightHouse Sathorn–Chareonnakorn 
13.6654057,100.6430622,Origin Place Bangna 
13.7208764,100.5763047,Ideo Sukhumvit - Rama 4 
13.8069227,100.5726613,Ideo Ladprao 17 
13.838583,100.5825706,You 3 Condo at Yak Kaset 
13.709393,100.5404397,The Issara Sathorn 
13.7638097,100.4910842,Rattanakosin View Mansion 
13.7616217,100.5426985,Chewathai Ratchaprarop 
13.7099744,100.4093947,The Parkland Phetkasem 
13.7376138,100.5626623,Le Premier 1 
13.6707821,100.6374845,Bangna Complex 
13.7091638,100.5989587,Ramada Plaza By Wyndham Bangkok Sukhumvit 48 
13.7351173,100.5676356,Beverly 33 
13.6875946,100.5179856,Star View 
13.7505666,100.5833392,AQ Alix Residence Soonvijai 
13.7303224,100.5859776,Modern Town 
13.7230481,100.5292264,The Infinity 
13.7250896,100.5634474,The Nest Sukhumvit 22 
13.7478777,100.5525933,First Tower 
13.6885094,100.5492497,Supalai Prima Riva 
13.7315763,100.5748823,Via Botani 
13.7303322,100.640112,Regent Srinakarin Tower 
13.7968826,100.6943992,The Niche ID Serithai 
13.7756542,100.6583916,Lumpini Condo Town Nida - Serithai 
13.8319655,100.5713079,Centric Ratchayothin 
13.7037092,100.5997354,The Next Sukhumvit 52 
13.7973916,100.5826188,Groove Scape Ladprao - Sutthisan 
13.7132262,100.6043795,Lumpini Center Sukhumvit 77 
13.7230857,100.527201,Life At Sathorn 10 
13.7337376,100.5851763,La Citta Thonglor 8 
13.6983259,100.3934856,The Viva Petchkasem 68 
13.7788276,100.5429291,Nue Evo Ari 
13.78084,100.6212095,Cube Condo Latphrao 93-101 
13.8185865,100.679809,Blossom Condo at Fashion Beyond 
13.7277746,100.5109658,The Residences Mandarin Oriental Bangkok 
13.8285799,100.5704346,Central Ratchayothin Park 
13.7617028,100.5915229,JRY Rama 9 Condominium 
13.6577186,100.6030121,KnightsBridge Collage Sukhumvit 107 
13.8051789,100.5759377,Haus 23 Ratchada-Ladprao 
13.8027375,100.5870658,Regent Home 12 Latphrao 41 
13.7349128,100.5469176,Prive by Sansiri 
13.7084087,100.4117507,Bangkae City Condo 
13.8140548,100.5607259,The Crest Park Residences 
13.6713805,100.605605,The Coast Bangkok 
13.8383528,100.5837177,Hesper Blue Kaset 
13.681419,100.6126129,Pause Sukhumvit 103 
13.7211433,100.7038376,Lumpini Ville On Nut - Latkrabang 
13.6787807,100.6239097,My Condo Sukhumvit 103 
13.8092277,100.7210512,Lumpini Condotown Romklao - Suvarnabhumi 
13.8630429,100.6027654,Darinplace 
13.7624168,100.6487715,Bangkok Horizon Ramkhamhaeng 
13.7537081,100.6142907,The Muve Ram 22 
13.7373269,100.642984,Rich Park at Triple Station 
13.7462183,100.6062662,Bangkapi Grand Condo 
13.8102466,100.5672202,The Zest Ladprao 
13.7394856,100.542708,Grand Langsuan 
13.7393008,100.5726451,Siamese Thirty Nine 
13.7097814,100.542075,The Parco Condominium 
13.7254525,100.58171,Moon Tower 
13.7239708,100.530225,Quad Silom 
13.7138542,100.5344802,Regal Condo Sathon - Naradhiwas 
13.728487,100.4739658,City Home Tha-Phra Intersection 
13.741033,100.5612946,The Master Centrium Asoke-Sukhumvit 
13.6836138,100.5491864,Lumpini Place Narathiwas 
13.671706,100.541619,The Pano Rama3 
13.7226251,100.5468407,The Natural Place Suite Condominium 
13.7718995,100.4928005,Chateau in Town Rama 8 
13.7842859,100.5828005,C Style Condominium Ratchada 18 
13.7113344,100.5493528,Supreme Legend 
13.7251936,100.5618277,XVI The Sixteenth Condominium 
13.7643056,100.6510556,Origin Plug and Play Ramkhamhaeng Triple Station 
13.8027432,100.5699266,Groove Vibes Ladprao 18 
13.7169601,100.5166173,Rhythm Sathorn 
13.693601,100.5359292,The Trust Residence Ratchada-Rama 3 
13.7890642,100.5893815,The Privacy Ratchada - Sutthisan 
13.7005999,100.5164468,The Key Sathorn-Charoenraj 
13.8027837,100.5610103,Baan Vipavee 
13.76396,100.5399989,Maestro 07 Victory Monument 
13.7123876,100.4697854,Rich Point Wutthakard 
13.7044308,100.5925203,Niche Mono Sukhumvit 50 
13.7234211,100.5317775,Collezio Sathorn-Pipat 
13.7978145,100.5951333,Lumpini Ville Latphrao-Chokchai 4 
13.8462396,100.5635848,The Ville Kaset - sart 
13.7227157,100.5369773,Baan Piya Sathorn 
13.7046264,100.5950204,Mayfair Place Sukhumvit 50 
13.7129461,100.587961,The Tree Sukhumvit - Rama 4 
13.7612071,100.6490618,Plum Condo Ram 60 Interchange 
13.7076107,100.5997195,Aspire Onnut Station 
13.722028,100.534139,The Met 
13.7532034,100.5762888,Lumpini Park Rama 9 - Ratchada 
13.7297391,100.5760098,The Alcove 49 
13.7553223,100.5689843,PG Rama IX 
13.8121895,100.5208307,Chapter One Shine Bangpo 
13.8457359,100.5806616,Kensington Phahol - Kaset 
13.7412308,100.5497264,Baan Siriruedee 
13.8177949,100.5795142,Ease Ratchada 
13.7897757,100.5744605,Ratchada City 18 
13.7258275,100.5850911,Le Nice Ekamai 
13.7158569,100.5689948,Mirage Sukhumvit 27 
13.7201293,100.5211623,Sathorn House 
13.7539695,100.529213,CONNER Ratchathewi 
13.8250949,100.5369749,U Delight 3 Prachachuen Bangsue 
13.7788857,100.5425603,Noble Lite 
13.7544272,100.5290283,Park Origin Ratchathewi 
13.7110806,100.5939199,Aspire Sukhumvit 48 
13.7190073,100.5314868,The Empire Place 
13.7591043,100.5329015,Ideo Mobi Phayathai 
13.7352523,100.5830644,Liv At 49 
13.7810072,100.4745165,Lumpini Place Pinklao 2 
13.8195212,100.530245,Regent Home Bangson 27 
13.7874567,100.5439959,Le Monaco Residence Ari 
13.689724,100.4526312,Ekachai Condominium 2 
13.7482069,100.528612,Klass Siam 
13.810566,100.5634373,Vibhavadi Suite 
13.7208764,100.5763047,Ideo Q Sukhumvit 36 
13.7198457,100.5220438,The Diplomat Sathorn 
13.8188721,100.5317414,Ideo Mobi Wongsawang - Interchange 
13.7867356,100.5717854,The Kris Ratchada 17 
13.7146644,100.6192444,Regent Pattanakarn 
13.6735656,100.545521,Royal River Place 
13.7419362,100.5442268,Klass Langsuan 
13.7170064,100.5857113,The Address Sukhumvit 42 
13.723574,100.5393765,Sathorn Park Place 
13.818889,100.580862,Vino Ratchada 32 
13.7355892,100.5569719,FYNN Asoke Sukhumvit 10 
13.6748627,100.5990973,Bangna Residence 
13.681727,100.6096941,Ideo Mobi Sukhumvit 66 
13.7562914,100.5424251,Ratchaprarop Garden 
13.7057387,100.5145285,The Cube Urban Sathorn-Chan 
13.7920371,100.5474762,Maison De Ville 
13.731487,100.5737565,Mukda Mansion 
13.7609277,100.5497383,A Space Hideaway Asoke-Ratchada 
13.7161181,100.5309232,Sathorn Prime Residence by JC Kevin Sathorn Bangkok 
13.732944,100.580576,The Waterford Thonglor 11 
13.7281877,100.5720965,The Address Sukhumvit 28 
13.7614202,100.5053265,The 8 Collection 
13.7309518,100.5794538,Runesu Thonglor 5 
13.7193915,100.5121785,Citrine Sathorn-Taksin 
13.8126836,100.5252523,Fresh Condominium 
13.7652912,100.5481173,Mayfair Place Victory Monuments 
13.7229874,100.5670927,The Emporio Place 
13.839135,100.5825621,Elio Del Moss 
13.7891585,100.5805808,Humble Living @ Chintawet 
13.774004,100.610813,Baan Sukhothai Ramkhamhaeng 
13.7396245,100.543185,Urbana Langsuan [Leasehold] 
13.7087331,100.5382084,Baan Siri Sathorn Suanplu 
13.72008,100.7264486,iCondo Green Space Sukhumvit 77 Phase 1 
13.728856,100.476825,Ideo Thaphra Interchange 
13.6612197,100.6058711,Supalai City Resort Bearing Station Sukumvit 105 
13.8875385,100.6041347,Knightsbridge Sky City 
13.6893645,100.6027579,Regent Home 9 Sukhumvit 64 
13.7758337,100.5429748,Siamese Ratchakru 
13.7454355,100.549827,Craft Ploenchit 
13.7091201,100.6156022,The Origin Onnut 
13.7382553,100.5617989,Celes Asoke 
13.7182706,100.5900997,Condo One Sukhumvit 67 
13.7258453,100.5804401,Fifty Fifth Tower 
13.7833401,100.6234894,Lat Phrao Condotown 2 
13.7188057,100.4561352,Supalai Park Ratchaphruek-Phetkasem 
13.8284133,100.5660665,Wind Ratchayothin 
13.6614295,100.6068748,Notting Hill Sukhumvit 105 
13.6897686,100.6067808,Whizdom The Exclusive 
13.7376873,100.5533109,Omni Tower Sukhumvit Nana 
13.7351805,100.553462,Crystal Garden 
13.7227439,100.5020415,Tourmaline Gold Sathorn-Taksin 
13.7260647,100.5691871,Regent On The Park 1 
13.7558019,100.532416,Ideo Q Phayathai 
13.7258617,100.5372361,The Royal Saladaeng 
13.8119573,100.5724386,The Origin Ladprao 15 
13.6791775,100.5277887,Lumpini Park Riverside Rama 3 
13.7611375,100.6169092,Lumpini Condo Town Bodindecha - Ramkhamhaeng 
13.8456067,100.5424463,Lumpini Ville Prachachuen-Phongphet 2 
13.7228553,100.5057084,Q House Sathorn 
13.749152,100.5268027,The Reserve - Kasemsan 3 
13.7350685,100.5441258,Muniq Langsuan 
13.742877,100.558266,Cloud Residences SKV23 
13.71243,100.4310821,The LIVIN Phetkasem 
13.7380459,100.6451813,U Delight at Huamak Station 
13.7382636,100.5434503,Baan Sindhorn 
13.8031,100.5694374,SYM Vibha-Ladprao 
13.7505268,100.5647743,Life Asoke 
13.7463342,100.5495316,The Nest Ploenchit 
46.0036778,8.951051999999999,Lugano Ladprao 18 
13.7623641,100.4719031,Ideo Mobi Charan Interchange 
13.7401073,100.5726626,Quintara MHy’ZEN Phrom Phong 
13.7228904,100.5360792,Urbana Sathorn 
13.775989,100.5418475,Villa Rachakhru 
13.7348476,100.5283725,Triple Y Residence 
13.7889646,100.5056963,My Resort at River 
13.6914967,100.4806251,Lumpini Place Suksawat - Rama 2 
13.6967683,100.5441358,The Star Estate at Rama 3 
13.8940605,100.6130208,Plum Condo Saphanmai Station 
13.8284241,100.5919156,MITI Condo Ladprao-Wanghin 
13.6620737,100.4442047,Unio Rama 2 - Thakham 
13.7198011,100.543675,Baan Preuksasiri Suanplu 
13.7235924,100.5814494,Culture Thonglor 
13.7841713,100.5712747,Metro Sky Ratchada 
13.6759381,100.516683,Nue Riverest Ratburana 
13.7379326,100.5840693,AESTIQ Thonglor 
13.7974069,100.5646865,Prasertsuk Place 
13.7727781,100.5800942,U Delight at Huay Kwang Station 
13.8201492,100.5841919,Prompto Condo Ratchada 32 
13.9271835,100.5831102,Happy Condo Laksi-Donmuang 
13.7786718,100.5273428,Supavadee Tower 
13.7356367,100.5577985,Circle rein Sukhumvit 12 
13.7353925,100.5392841,185 Rajadamri 
13.8183518,100.535954,Supalai Veranda Ratchavipha - Prachachuen 
13.7594567,100.5317072,The Address Phayathai 
13.7237462,100.5235033,The Treasure Silom 
13.73916,100.447973,Dcondo Campus Resort Ratchapruek-Charan 13 
13.7228553,100.5057084,The River by Raimon Land 
13.72266,100.5660665,The Lumpini 24 
13.8146274,100.6216479,Noble Create 
13.747801,100.557279,Beverly Tower Condo 
13.6819936,100.6230419,IKON Udomsuk 
13.7454902,100.5455543,New House Condo 
13.7399712,100.6442666,Bliz Condominium Rama 9 - Hua Mak 
13.7218367,100.49796,Nye by Sansiri 
13.727973,100.5607914,Voque Sukhumvit 16 
13.754429,100.5641084,Rhythm Asoke 
13.71272,100.4994261,Master View Executive Place 
13.7486926,100.5492755,Wittayu Complex 
13.7810329,100.5411494,The Fine by Fine Home Ari 4 
13.8328796,100.5723097,Lumpini Park Phahon 32 
13.8301483,100.5645369,Sarin Place 
13.7327318,100.5094222,Baan Chaopraya Condo 
13.6785478,100.6085477,Ideo Blucove Sukhumvit 
13.7440432,100.5723345,Mano Tower 
13.7347952,100.5622594,Citi Smart Condominium 
13.7377059,100.5746658,Vincente Sukhumvit 49 
13.7369789,100.5561228,Siri On 8 
13.7550791,100.4692286,NUE Noble Fai Chai - Wang Lang 
13.7312776,100.5784256,Raintree Villa 
13.7821552,100.571111,Chateau In Town Ratchada 13 
13.7200454,100.5323175,Narathorn Place 
13.700012,100.5380374,Lumpini Place Water Cliff 
13.7215582,100.5042718,Villa Sathorn 
13.8065121,100.5732224,Atmoz Ladphrao 15 
13.7129047,100.5836078,Aspire Sukhumvit-Rama 4 
13.7521551,100.533363,The Line Ratchathewi 
13.7114447,100.5435652,Baan Yen Akard 
13.7442438,100.5584132,The Concord 
13.8100577,100.5601512,The Privacy Jatujak 
13.798107,100.5560948,U Delight at Jatujak Station 
13.744178,100.575319,The Niche Sukhumvit 49 
13.7421117,100.563503,Century Heights 
13.7383449,100.5464055,Oriental Residence Bangkok [Leasehold] 
13.7603365,100.6280175,Supalai Veranda Ramkhamhaeng 
13.7853509,100.5498366,Baxtor Phaholyothin 14 
13.7286241,100.5855361,Impression Ekkamai 
13.7077171,100.5983184,Zenithar Penthouse Sukhumvit 
13.7487206,100.5678957,The Parkland Grand Asoke-Phetchaburi 
13.744825,100.5838861,The Niche Pride Thonglor-Phetchaburi 
13.7292294,100.5660739,The Crest Sukhumvit 24 
13.7318854,100.5038352,FLO by Sansiri 
13.8198614,100.5683407,La Maison Phaholyothin 24 
13.7387627,100.5412306,Baan Rajprasong [Leasehold] 
13.7587391,100.4696495,The Tree Charan 30 
13.7890555,100.6277865,Plum Condo Ladprao 101 
13.7476006,100.6422316,The One Plus Srinakarin 
13.8176369,100.5325927,U Delight Bangson Station 
13.7447138,100.5671284,Prime Mansion One 
13.7353021,100.5403038,Noble Ambience Sarasin 
13.8284612,100.5273827,The Parkland Ratchada - Wongsawang 
13.9594665,100.625421,Pluksa Thani Fifth Condotel 
13.7250946,100.5686699,Condo One X Sukhumvit 26 
13.6904149,100.5049008,Lumpini Place Rama III-Riverview 
13.7130193,100.6000635,The Base Park West Sukhumvit 77 
13.7234099,100.5445024,The Shade Condo Sathorn 1 
13.6798304,100.6241739,The Series Udomsuk 
13.775175,100.4810918,Lumpini Place Pinklao 1 
13.7538603,100.529565,Maestro 12 
13.8013155,100.5812408,The Raffles 
13.776648,100.5824604,Samran Mansion 
13.8792866,100.5979326,Knightsbridge​ Phaholyothin​ - Interchange​ 
13.7346385,100.5506555,Noble Above Wireless Ruamrudee 
13.7247389,100.5833316,SOCIO Reference 61 
13.7873112,100.5461025,Harmony Living Paholyothin 11 
13.8303234,100.5697366,The Seed Terre Ratchayothin 
13.7323949,100.5096359,Banyan Tree Residences Riverside Bangkok 
13.6765615,100.6031484,Beyond Sukhumvit 
13.7173676,100.5762858,Vtara Sukhumvit 36 
13.7067775,100.6233339,Eastwood Park 
13.75479,100.5260011,Supalai Premier Ratchathewi 
13.726177,100.5679592,Baan Siri 24 
13.7613896,100.6372125,Niche Mono Ramkhamhaeng 
13.7508749,100.5292931,Maestro 14 Siam - Ratchathewi 
13.7872084,100.5770531,Maxxi Prime Ratchada - Sutthisan 
13.7909369,100.5746579,Life at Ratchada - Suthisan 
13.7539429,100.564297,Chewathai Residence Asoke 
13.722577,100.5878911,Click Condo Sukhumvit 65 
13.7423267,100.5414647,Magnolias Ratchadamri Boulevard [Leasehold] 
13.7436397,100.5564011,Hyde Sukhumvit 11 
13.757179,100.535399,Noble Revent 
13.7806789,100.5433195,Aree Place Phahonyothin 
13.8252974,100.6306672,Baan Navatara 
13.7518203,100.5797896,Garden Asoke - Rama 9 
13.7436,100.5671864,Q Prasarnmit 
13.8167455,100.5493011,Bangkok Feliz Major Ratchayothin 
13.7405995,100.5708083,D.S. Tower 2 Sukhumvit 39 
13.7441683,100.585446,Thru Thonglor 
13.785965,100.5491769,Chateau In Town Phaholyothin 14 
13.7166067,100.5469219,Baan Siriyenakat 
13.7408068,100.5724307,The Cadogan Private Residences 
13.7240534,100.5328339,Pearl Garden 
13.7107766,100.5198909,Blossom Condo @ Sathorn-Charoenrat 
13.7520356,100.5328073,Baan Klang Krung Siam-Pathumwan 
13.7471842,100.5516062,Park Ploenchit 
13.7438425,100.556695,The Prime 11 
13.7147829,100.6052066,Kawa Haus 
13.7549076,100.6262758,Inspire Place ABAC-Rama IX 
13.7492755,100.6364844,Cocoon Rama 9 
13.7310507,100.5744109,S47 Sukhumvit 
13.7287338,100.5156846,The Room Charoenkrung 30 
13.7741204,100.569539,Baan Klang Krung Resort (Ratchada 7) 
13.7095041,100.4962305,Tridhos City Marina 
13.7272462,100.5345479,Silom Terrace 
13.7310271,100.5827292,Le Cote Thonglor 8 
13.797263,100.5517915,M Jatujak 
13.7244511,100.5708952,Aree Place Sukhumvit 26 
13.7773093,100.5466888,SAVVI Phahol 2 
13.7304859,100.5819396,Eight Thonglor Residence 
13.6648923,100.6371263,The Niche Mono Bangna 
13.805165,100.5742029,Whizdom Avenue Ratchada - Ladprao 
13.7158442,100.5862656,Quintara Treehaus Sukhumvit 42 
13.7813444,100.5446239,Noble Reform 
13.74229,100.573202,Regent On The Park 3 
13.7520516,100.5340501,The Address Siam 
13.7443656,100.6029391,The Privacy Rama 9 
13.8308983,100.540261,Niche Mono Ratchavipha 
13.8919511,100.5822038,Sucharee Life Laksi-Chaengwattana 
13.7105375,100.6082873,IKON Sukhumvit 77 
13.8129233,100.5960777,Plum Condo Chokchai 4 
13.7758117,100.4830414,My Condo Pinklao 
13.8332338,100.578915,The Waterford Royal Suit Senanikom 
13.8900837,100.605816,Tempo Quad Phaholyothin-Saphanmai 
13.8128394,100.6393641,Totnes Kaset - Nawamin 
13.7478759,100.5283132,The Seed Memories Siam 
13.7265318,100.5674473,Serene Place Sukhumvit 24 
13.7029581,100.5992413,Quintara Arte Sukhumvit 52 
13.7300327,100.5279841,Siamese Surawong 
13.7730562,100.4828061,Lumpini Suite Pinklao 
13.6962337,100.6453272,Elements Srinakarin 
13.8183153,100.5846831,Brown Condo Ratchada 32 
13.7784063,100.5771585,THE STAGE Mindscape Ratchada - Huai Khwang 
13.7910088,100.543511,Lumpini Place Phahol-Saphankhwai 
13.7941322,100.5494918,The Editor Saphan Khwai 
13.809696,100.564717,The Legacy Vibhavadi 
13.7378664,100.5625844,Muniq Sukhumvit 23 
13.7247303,100.5817363,Top View Tower 
13.7417641,100.5855081,The Monument Thonglo 
13.7518988,100.5345435,Wish Signature Midtown Siam 
13.7222613,100.553251,Coco Parc 
13.7320089,100.5707351,39 by Sansiri 
13.886007,100.5943849,M Heritage 
13.6577985,100.6017268,Voque Place Sukhumvit 107 
13.7750303,100.5817799,L Style Condo 
13.7199371,100.6163201,Baan Sukhumvit 77 
13.7778803,100.5402538,FYNN Aree 
13.716382,100.818456,NHA Lat Krabang Bangkok Two Phase 2 
13.7421995,100.5602602,Noble Recole 
13.685125,100.6093933,The Muse Sukhumvit 64/2 
13.8373142,100.5744444,KnightsBridge Kaset - Society 
13.7542622,100.6473491,Four Wings Residence 
13.6837594,100.6101751,Centric Scene Sukhumvit 64 
13.7880813,100.6274476,Happy Condo Ladprao 101 
13.7169887,100.5809037,MIELER Sukhumvit 40 
13.7213592,100.5337269,The Hudson Sathorn 7 
13.646842,100.681007,Sawasdee Bangkok 
13.8005559,100.5735881,L Loft Ratchada 19 
13.696328,100.605266,Symphony Sukhumvit 
13.7566234,100.5687505,Chamnan Phenjati Business Center 
13.7387589,100.5762435,Baan Prompong 
13.8099817,100.5641739,Lert Ubon Sky Life Tower 
13.8543586,100.5636418,Varawan Park Ngamwongwan 59 
13.6707821,100.6374845,Bangna Country Complex 
13.6583756,100.6133578,Very Lasalle 
13.7162214,100.4556814,Beat Bangwa Interchange 
13.7158704,100.5471476,Sathorn Plus - By The Garden 
13.7754507,100.484872,Thana Arcadia 
13.7093777,100.5392022,Issara Collection Sathorn 
13.7471039,100.5537153,Inter Lux Residence 
13.7378892,100.5926574,Le Cosi Ekamai 28 
13.7111303,100.500552,Watermark Chaophraya 
13.7794067,100.5414562,The Silk Phaholyothin-Aree 2 
13.751619,100.5880432,Sun Palace Condominium 
13.7206679,100.5882135,Hive Sukhumvit 65 
13.7785324,100.5758326,Soho Bangkok Ratchada 
13.7044495,100.5994861,Tree Condo Sukhumvit 50 
13.814848,100.5763659,Modiz Ratchada 32 
13.735896,100.5508433,SOCIO Ruamrudee 
13.8116607,100.5339201,U Delight At Bang Sue Station 
13.7228254,100.584161,Rhythm Ekkamai 
13.6842747,100.605217,The Nest Sukhumvit 64 
13.7168327,100.6008145,The Excel Hideaway Sukhumvit 71 
13.7431329,100.5889531,Supalai Park Ekkamai-Thonglor 
13.7059719,100.5389078,WINDSHELL Naradhiwas 
13.73856,100.5549714,Newton Tower 
13.7541882,100.5632693,Life Asoke Hype 
13.7460628,100.5223724,Cooper Siam 
13.7155114,100.4801343,Aspire Sathorn-Thapra 
13.726175,100.575635,BEATNIQ Sukhumvit 32 
13.7283647,100.5710246,Noble Refine 
13.754437,100.5635449,Life Asoke Rama 9 
13.7103615,100.6017758,Blocs 77 
13.8919832,100.5843705,Park View Viphavadi 
13.7199584,100.7357391,Romsuk 9 Condotown 
13.8504298,100.6056533,Condo U Kaset – Nawamin 
13.8055791,100.5262873,The Stage Taopoon - Interchange 
13.7160735,100.5827215,The Room Sukhumvit 40 
13.6949877,100.6035794,Life Sukhumvit 62 
13.6747354,100.5397685,Lumpini Place Rama 3 - Riverine 
13.7218707,100.4965179,Hive Taksin 
13.7163787,100.5315884,Sathorn Heritage 
13.7821876,100.5824371,The Excel Ratchada 18 
13.7242273,100.588359,Beverly Hills Mansion 
13.6890127,100.602521,Moniiq Sukhumvit 64 
13.8273878,100.5352446,Phibun Condo Ville 
13.7224697,100.5771606,Urbitia Thong Lo 
13.8005559,100.5735881,Wire Ratchada 19 
13.7631659,100.5691682,Noble Revolve Ratchada  
13.730343,100.5792327,The Waterford Park Sukhumvit 53 
13.7087269,100.545619,The Lofts Yennakart 
13.7168291,100.5296085,Sathorn Happy Land Tower 
13.6747426,100.6117858,The Sky Sukhumvit 
13.7581683,100.647812,Pattamon Condo Town 
13.730824,100.5864445,Up Ekamai 
13.723207,100.5223919,The Lofts Silom 
13.703094,100.5996384,The Next Garden Mix 
13.7781828,100.5469495,Sailom City Resort 
13.7369918,100.5567627,Baan Siri Sukhumvit 10 
13.738861,100.5790735,Prompak Gardens 
13.785274,100.5434368,SAVVI Ari 4 
13.7900239,100.5725431,City Room Ratchada-Suthisan 
13.7352523,100.5830644,Turn Berry 
13.7149715,100.4673077,Ideo Wutthakat 
13.7461749,100.5767779,Cloud Thonglor-Phetchaburi 
13.7362557,100.5579976,Circle S Sukhumvit 12 
13.7448413,100.5585372,Urbana Sukhumvit 15 
13.6919948,100.6082276,The Line Sukhumvit 101 
13.7775803,100.5417949,Suanbua Residence Ari-Ratchakru 
13.6845063,100.608483,Skyrise Avenue Sukhumvit 64 
13.7924136,100.5830644,Atmoz Ratchada - Huaikwang 
13.8076235,100.5711725,Maru Ladprao 15 
13.7172091,100.571418,U Sabai Rama 4 - Kluaynamthai 
13.6820515,100.4938261,ISSI Condo Suksawat 
13.7544306,100.5423027,Ideo Verve Ratchaprarop 
13.7129661,100.5923335,Sukhumvit Plus 
13.7698501,100.6385506,Aspire Ladprao 113 
13.7803965,100.5736957,Centric Ratchada - Huai Khwang 
13.7436115,100.6445149,The Iris Rama 9 - Srinakarin 
13.7295205,100.5783717,Chalermnit Art De Maison 
13.8131396,100.594956,Plum Condo Ramkhamhaeng 
13.7124894,100.5953276,Zenith Place at Sukhumvit 71 
13.770305,100.4849196,Ivy Residence Pinklao 
13.809563,100.5911,The Privacy Ladprao - Sena 
13.6616527,100.5027839,The Privacy Pracha Uthit - Suksawat 
13.7146758,100.596756,Happy Place Tower 
13.7837732,100.5860829,Happy Condo Ratchada 18 
13.7053637,100.603417,My Condo Sukhumvit 81 
13.7306175,100.5873542,The Fine Bangkok Thonglor-Ekamai 
13.7802856,100.5436573,Noble ReD 
13.7367197,100.5743657,39 Suites 
13.7135943,100.6330423,A Space Sukhumvit 77 
13.6899423,100.6090431,Quinn Sukhumvit 101 
13.7302247,100.5911809,Casa Viva 
13.6643405,100.6316704,Apool Condo 
13.7235896,100.5670485,Ideal 24 
13.816193,100.610403,Atmoz Ladprao 71 
13.7807266,100.5739968,Quintara MHy’GEN Ratchada - Huai Khwang 
13.7015859,100.5165878,Supalai Lite Sathorn - Charoenrat 
13.7198011,100.543675,Nara 9 by Eastern Star 
13.7771558,100.5792757,Zenith Place at Huay Kwang 
13.7254746,100.5656771,Park Origin Phrom Phong 
13.793889,100.6522032,Lumpini Park Nawamin-Sriburapha 
13.743918,100.581475,J.C. Tower 
13.7497799,100.5620482,The Address Asoke 
13.7908656,100.5461123,The Line Phahol - Pradipat 
13.6894194,100.606993,Whizdom Punnawithi Station 
13.7766602,100.4841333,Commonwealth Pinklao 
13.781167,100.4265082,Lumpini Place Borom Ratchachonni - Pinklao 
13.716011,100.5861231,Zenith Place Sukhumvit 42 
13.6969556,100.4860784,Niche Mono Charoen Nakorn 
13.7455951,100.5494682,Renova Residence Chidlom 
13.758874,100.4777644,The MOST Itsaraphap 
13.6732608,100.6042811,Ideo O2 
13.7186988,100.5268396,Centric Sathorn - Saint Louis 
13.7562167,100.5831479,Supalai Veranda Rama 9 
13.7517198,100.5346821,WISH Signature II Midtown Siam 
13.7067861,100.5930425,The Waterford Sukhumvit 50 
13.7356689,100.581385,Tidy Thonglor 
13.7389692,100.5664384,Circle Sukhumvit 31 
13.7345948,100.6416058,Asakan Place Srinakarin 
13.7061975,100.6013904,Ideo Verve Sukhumvit 
13.7484275,100.5644372,The Esse at Singha Complex 
13.7304444,100.5889567,Oriental Towers 
13.8083965,100.5892683,The Niche ID Ladprao - Wang Hin 
13.691611,100.6028502,Chateau In Town Sukhumvit 62/1 
13.7219052,100.4973608,Ideo Sathorn Wongwianyai 
13.7314281,100.5416984,Lumpini Ville Phahol-Suthisarn 
13.7228714,100.5304913,The Line Sathorn 
13.7230199,100.5511665,Amanta Lumpini 
13.7610355,100.5369713,Rhythm Rangnam 
13.7129237,100.4748763,Altitude Unicorn Sathorn - Tha Phra 
13.6847162,100.604285,Elio Del Ray 
13.8002117,100.5074968,The Tree Rio Bang-Aor 
13.6876896,100.6347091,The Escape 
13.674509,100.653114,The Key Udomsuk 
13.7709801,100.5764704,City Living Ratchada 
13.7509467,100.6362283,Condo U@Huamak Station 
13.7147606,100.5456529,Supreme Ville 
13.9064416,100.525796,Lumpini Ville Chaengwattana 10 
13.7968367,100.5696123,Maestro 19 Ratchada 19 - Vipha 
13.7959049,100.5502041,Ideo Phaholyothin Chatuchak 
13.8243318,100.615383,Thana Place Condominium 
13.834864,100.660707,The Cube Nawamin-Ramintra 
13.7141828,100.433124,The Parkland Phetkasem 56 
13.7101648,100.4788586,The Parkland Ratchada-Thapra 
13.8151186,100.6985277,The Cube Station Ramintra 109 
13.7332183,100.5749953,Walden Sukhumvit 39 
13.7057188,100.5404856,Supreme Elegance 
13.7560778,100.5675752,Nue District R9 
13.7773302,100.5466552,Prom Phaholyothin 2 
13.7128225,100.5825558,Lumpini Place Rama 4-Kluaynamthai 
13.7169978,100.5762807,168 Sukhumvit 36 
13.7666568,100.6327295,HI Ladprao 130 
13.749176,100.5915072,I-House Rama IX-Ekamai 
13.8076305,100.5128462,Chateau In Town Charansanitwong 96/2 
13.6952822,100.494349,Supalai Casa Riva 
13.7151552,100.5947065,The Line Sukhumvit 71 
13.7086559,100.4810945,Lumpini Place Ratchada-Thapra 
13.7325589,100.638565,Vivid Tower 
13.7974943,100.557043,Denim Jatujak 
13.6999565,100.6754809,Prueksa Thani 3 Condotel 
13.7391018,100.5827252,D25 Thonglor 
13.7241712,100.5777011,The Esse Sukhumvit 36 
13.7172604,100.5833686,Noble Ambience Sukhumvit 42 
13.7362211,100.5600514,Le Cote Sukhumvit 14 
13.7337376,100.5851763,La Citta Delre Thonglor 16 
13.7519248,100.5310182,Pyne by Sansiri 
13.7384693,100.5647461,Sukhumvit House 
13.7228197,100.5607517,Lumpini Place Rama4-Ratchadaphisek [Leasehold] 
13.8008846,100.5210126,The Tree Privata 
13.7709237,100.5739604,Chateau in Town Ratchada 10 
13.6863511,100.6358328,The Log 3 Sukhumvit 101 
13.6914426,100.6144617,Green Ville Condo Sukhumvit 101 
13.7304275,100.5228442,Supalai Elite Surawong 
13.6909013,100.5343886,Le Rich Sathorn-Satupradit 
13.8305692,100.5489055,Regent Home 5 Ratchada 19 
13.7205293,100.5030464,The Bangkok Sathorn-Taksin 
13.6658834,100.6529657,The Muve Bangna 
13.706127,100.591049,The Excel Hideaway Sukhumvit 50 
13.7647889,100.6537571,D Condo Ramkhamhaeng 64 
13.7353358,100.5735197,Tristan 
13.730635,100.5731273,The Bangkok Sukhumvit 43 
13.7223625,100.5830633,MODE Sukhumvit 61 
13.7174612,100.6326059,The Iris 
13.7767176,100.5829535,The Seed Ratchada-Huay Kwang 
13.7499551,100.5410581,Grand Diamond Pratunam 
13.7316131,100.5255411,Ideo Chula - Samyan 
13.7483008,100.6053934,The Base Rama 9 - Ramkhamhaeng 
13.7227959,100.5022575,Tourmaline Lite Sathorn-Taksin 
13.7481298,100.5940614,Le Chateau Condo 
13.6898845,100.5045463,The Key Rama 3 
13.7295926,100.5911114,Empire House 
13.6745317,100.5460692,PM Riverside 
13.8906051,100.5620293,Kensington Place 
13.7211433,100.7038376,Lumpini Ville On Nut – Lat Krabang 2 
13.7004217,100.5350258,Lumpini Place Narathiwas 24 
13.9266431,100.584134,Grene Condo Donmuang - Songprapha 
13.7720742,100.6151828,Ma Maison Condo 
13.7395274,100.5484397,All Seasons Mansion 
13.7378043,100.5733144,Yada Residential 
13.7513139,100.5329785,The Address Pathumwan 
13.8562602,100.5478995,Aspire Ngamwongwan 
13.7300667,100.5828666,Walden Thonglor 8 
13.8346238,100.640222,D5 Condo 
13.7362702,100.4256085,D Condo Campus Resort Ratchapruek - Charan 13 
13.7688868,100.4971686,Lumpini Place Rama VIII 
13.795981,100.398237,Green Ville 
13.7317414,100.5714894,Baan Suanpetch 
13.716,100.4461735,The Key MRT Phetkasem 48 
13.7691431,100.5827871,Artisan Ratchada 
13.7142183,100.5928145,The Room Sukhumvit 69 
13.7354039,100.567476,Noble BE33 
13.686257,100.6048679,The Room Sukhumvit 64 
13.7929002,100.5491422,The Signature by URBANO 
13.7458094,100.5418039,President Place 
13.7109241,100.5485986,Resorta Yen-Akat 
13.7530749,100.4704736,Supalai Park Yaek Fai Chai Station 
13.7217301,100.5659746,President Park Sukhumvit 24 
13.7061467,100.5365532,Baan Nonsi 
13.676034,100.6122953,Dolce Udomsuk 
13.7396778,100.5428531,Langsuan Ville 
13.7245002,100.5817138,59 Heritage 
13.7369917,100.5629988,Prasanmitr Condominium 
13.7657858,100.804737,Sena Kith Chalongkrung-Latkrabang 
13.7169153,100.5813701,Ideo Mobi Sukhumvit 40 
13.8284197,100.5790515,Tawanna Residence 2 
13.8530914,100.607211,Lumpini Condo Town Ramindra - Latplakhao 
13.8300461,100.570907,Lumpini Place Ratchayothin 
16.585353,99.4370604,Brown Condo Phahol-Sapan Mai 
13.7740277,100.541475,The Silk Phaholyothin 3 
13.7409131,100.6220428,Monte Rama 9 
13.7390897,100.5406057,Baan Somthavil 
13.738678,100.6056888,Metris Pattanakarn - Ekkamai 
13.7435766,100.548378,Noble Ploenchit 
13.718357,100.5104862,Supakarn Condominium 
13.7140871,100.5044394,Chapter Charoennakorn–Riverside 
13.7500289,100.5765732,I-House Laguna Garden 
13.7315972,100.4728035,The Privacy Thaphra Interchange 
13.6967683,100.5441358,The Star Estate at Narathiwas 
13.7198131,100.4934055,The Rich Sathorn - Taksin 
13.7106502,100.3963652,Fuse Sense 
13.7303733,100.6997389,Dcondo Onnut-Rama 9 
13.7956262,100.4504588,Kacha Puri Condominium 
13.7170792,100.479118,Life Sathorn Sierra 
13.7108744,100.5095152,Chatrium Residence Riverside 
13.7019671,100.5003048,River Heaven 
13.7176942,100.5084304,The Fine at River 
13.8801866,100.5865135,Plum Condo Mix Chaengwattana 
13.7362997,100.5141991,Condo One Soho 
13.8210272,100.5885632,Chateau In Town Ratchada 36 
13.7198131,100.4934055,Rich Sathorn-Taksin 
13.8406566,100.5871968,Chewathai Kaset - Nawamin 
13.7391187,100.5425999,Q Langsuan 
13.7396459,100.5411259,The Rajdamri [Leasehold] 
13.725069,100.5647489,Aguston Sukhumvit 22 
13.7363038,100.5845552,Noble Ora 
13.7199652,100.4926957,TEAL Sathorn-Taksin 
13.7447545,100.5675927,Kiarti Thanee City Mansion 
13.7197651,100.5978413,Fragrant 71 
13.7824973,100.614025,Tara Ruen Ake 
13.6849885,100.6022023,The Link Vano Sukhumvit 64 
13.7172296,100.589152,Life @ Sukhumvit 65 
13.674997,100.5325454,U Delight Residence Riverfront Rama 3 
13.7290231,100.5893039,La Cascade 
13.7825776,100.5460931,Adamas Phahonyotin 
13.6644036,100.6089896,The Excel Hideaway Lasalle 11 
13.8535619,100.6360802,D Condo Ramindra 
13.75926,100.585928,N.T. House 
13.7089754,100.5329979,The Bangkok Narathiwas 
13.7425846,100.5416917,The Royal Maneeya 
13.798701,100.6204433,The Unique Ekamai-Ramintra 
13.7182207,100.5779606,38 Mansion 
13.733533,100.5604201,The Lakes 
13.6649125,100.6036429,Ideo Mobi Sukhumvit East Point 
13.7184072,100.5876468,The Lofts Ekkamai 
13.7221556,100.5818325,Hyde Heritage Thonglor 
13.7630933,100.5683282,Ivy Ampio 
13.778949,100.4870387,Thana Astoria 
13.8257977,100.5765065,Life at Ratchada Condominium 
13.6437612,100.6382071,The Cube Loft Nuanchan 
13.7873281,100.5725092,The Kris Extra 4 
13.8158902,100.5629085,Life Ladprao Valley 
13.7189198,100.5091397,Baan Sathorn Chaophraya 
13.7631659,100.5691682,Noble Revolve Ratchada 
13.719922,100.493973,Reference Sathorn - Wongwianyai 
13.7345948,100.6416058,Asakan Place Ramkhamhaeng 
13.8307861,100.5615926,Supalai Park Ratchayothin 
13.7137768,100.599139,Vista Garden 
13.7625764,100.641799,The Tree Hua-Mak 
13.7134954,100.4763057,Casa Condo Ratchada-Ratchaphruek 
13.7144102,100.4068293,The President Petchkasem-Bangkhae 
13.7557494,100.5632598,The Line Asoke - Ratchada 
13.7345073,100.5559316,Lake Green Condominium 
13.8961767,100.5707229,Maison Garden Chaeng Watthana 
13.7409337,100.5645155,Prestige Towers 
13.778345,100.5865642,Metha Place at Ratchada 
13.7717325,100.4594002,Dcondo Tann-Charan 
13.7559731,100.5608889,Supalai Park Asoke-Ratchada 
13.704998,100.601818,The President Sukhumvit 81 
13.7398341,100.5399872,The Residences at The St. Regis Bangkok [Leasehold] 
13.7159873,100.4729263,Metro Sky Wutthakat 
13.720924,100.5885384,Penthouse Condominium 3 
13.7314468,100.570686,The Diplomat 39 
13.7449562,100.5728837,Supalai Oriental Sukhumvit 39 
13.721926,100.584844,Noble Reveal 
13.7182768,100.5492522,Condolette Pixel Sathorn 
13.732757,100.524612,The Nest Chula-Samyan 
13.8263064,100.5920262,CHAMBERS CHAAN Ladprao - Wanghin 
13.6891428,100.6187266,The Green 3 at Sukhumvit 101 
13.6705973,100.6245601,The Teak Bangna-Trad 
13.7230401,100.5789576,Von Napa Sukhumvit 38 
13.8882347,100.6044701,The Base Saphanmai 
13.7861742,100.5491143,Na Veera Phahol-Ari 
13.7204768,100.5285126,Sky Villas Sathorn [Leasehold] 
13.7581683,100.647812,Fak Khao Pode 
13.740178,100.5780646,Downtown 49 
13.8110064,100.7336949,The Origin Ram 209 Interchange 
13.7165788,100.4810698,The Parkland Taksin-Thapra 
13.7560161,100.5638745,Ashton Asoke - Rama 9 
13.7921976,100.5757968,Chateau In Town Ratchada 20 
13.7111245,100.6039016,U Delight at Onnut Station 
13.6883699,100.5141227,Canapaya Residences 
13.8068134,100.5195996,333 Riverside 
13.7209856,100.4913376,Phayapirom Regent Taksin-Sathorn 
13.871414,100.602617,Lumpini Place Ramintra-Laksi 
13.7150025,100.6024219,Mori Haus 
13.6713794,100.4597137,Plum Condo Rama 2 
13.6810334,100.610778,City Home Sukhumvit 
13.8751834,100.5569053,Baan Suan Chaengwattana 
13.743144,100.5617274,The Esse Asoke 
13.7336085,100.5871933,XT Ekkamai 
13.8051986,100.5699185,Levo Ladprao 18 Project 1 
13.7760975,100.4853162,Life Pinklao 
13.7397232,100.5516758,Focus Ploenchit 
13.7276127,100.5347752,Silom Condominium 
13.7880464,100.5531323,Haven Luxe 
13.7542339,100.532731,Villa Rachatewi 
13.8115641,100.7152804,Esta Bliss Condo 
13.7600705,100.5691948,Belle Grand Rama 9 
13.7262701,100.5696282,Kraam Sukhumvit 26 
13.7177547,100.5853457,Rhythm Sukhumvit 42 
13.8060926,100.5701636,Modiz Ladprao 18 
13.8393604,100.5824567,Kave Seed Kaset 
13.7198288,100.5905244,Penthouse Condominium 
13.8354869,100.5807001,Condo U Ratchayothin 
13.7450639,100.5493803,O2 Hip Condo 
13.7051847,100.6035122,Chambers On-Nut Station 
16.585353,99.4370604,Supalai Park Phaholyothin 
13.7363594,100.7446371,Airlink Residence 
13.7210773,100.4585116,The President Sathorn-Ratchaphruek 
13.6883484,100.4923825,Ivy River 
13.8296031,100.5725952,Chateau In Town Major Ratchayothin 
13.686006,100.6089421,Chateau in Town Sukhumvit 64 
13.7141116,100.4682071,The Key Wutthakat 
13.7595365,100.5416344,Ideo Mobi Rangnam 
13.74716,100.5559817,Liberty Park 2 
13.7568954,100.5602198,A Space Asoke-Ratchada 
13.7174698,100.6025715,NIA By Sansiri 
13.6625748,100.6174501,The Origin Sukhumvit 105 
13.7345461,100.5786682,Grand Heritage Thonglor 
13.7857077,100.4905904,Origin Plug & Play Sirindhorn Station 
13.7503964,100.587428,KALM Penthouse 
13.7712278,100.6296844,City Villa 
13.7665526,100.5813377,Supalai Wellington 2 
13.7803364,100.5755896,XT Huaikhwang 
13.661717,100.6240461,Lumpini Ville Lasalle-Barring 
13.7558641,100.4749254,D BURA Pran Nok 
13.7495025,100.5563704,Circle Condominium 
13.7417189,100.5646919,Liberty Park 1 
13.7779571,100.5425685,Centric Ari Station 
13.7276827,100.5754737,Aequa Sukhumvit 49 
13.7112545,100.4793489,Supalai Loft@Talat Phlu Station 
13.7571301,100.5394347,Supalai Elite Phayathai 
13.7218616,100.5048338,Bangkok Feliz Sathorn-Taksin 
13.7220699,100.5822722,Fullerton Sukhumvit 
13.7829619,100.5745872,Life Ratchadapisek 
13.8019937,100.6081587,My Story Ladprao 71 
13.767607,100.5988126,Than Living 
13.8051116,100.5708534,LIB Ladprao 20 
13.7418858,100.5443833,Na Vara Residence 
13.7819004,100.6730166,Unio Ramkhamhaeng-Serithai 
13.825033,100.5666365,Knightsbridge Space Ratchayothin 
13.728202,100.5650291,Wilshire 
13.7111778,100.6024961,The Base Park East Sukhumvit 77 
13.7571799,100.5388236,XT Phayathai 
13.7242843,100.5771389,Noble Remix 
13.7046437,100.6015989,Siri At Sukhumvit 
13.7253562,100.5381887,Saladaeng Residences 
13.7872673,100.6140352,Clover Ladprao 83 
13.725035,100.546469,Lumpini Park View 
13.8195993,100.5320871,Regent Home Bangson 28 
13.7915439,100.5921845,The Excel Ladprao-Sutthisan 
13.7283364,100.477903,The Parkland Phetkasem - Thapra 
13.7908635,100.5761814,Ivy Ratchada 
13.8353119,100.6661869,The Origin Ramintra 83 Station 
13.7480719,100.544804,Somkid Place 
13.6644036,100.6089896,The Excel LaSalle 17 
13.7310122,100.5870134,M Thonglor 10 
13.7356202,100.5746744,The Amethyst Sukhumvit 39 
13.698831,100.6145264,Regent Home Sukhumvit 97/1 
13.7273052,100.5105012,Magnolias Waterfront Residences 
13.7118424,100.5804917,Metro Luxe Rama 4 
13.7165609,100.5850118,Wyndham Garden Residence Sukhumvit 42 
13.7482313,100.5589438,The Peak Sukhumvit 15 
13.7302826,100.5759086,Via 49 
13.7422088,100.5834987,W 8 Thonglor 25 
13.7439846,100.6304333,S1 Rama 9 Condominium 
13.7971908,100.5584704,Lumpini Park Vibhavadi - Chatuchak 
13.7475136,100.5449048,The Park Chidlom 
13.7244973,100.6228466,Royal Castle Pattanakarn 
13.7202495,100.5026715,Ideo Mobi Sathorn 
13.7169465,100.533536,Knightsbridge Prime Sathorn 
13.8090914,100.5678597,The Issara Ladprao 
13.7406996,100.5734776,The Teak Sukhumvit 39 
13.7343734,100.5720102,Royal Castle 
13.7510946,100.5985363,Rise Rama 9 
13.6899487,100.6041093,The Light Newyork 
13.729461,100.5760068,49 Suite 
13.7129294,100.4658123,The Key Sathorn-Ratchapruek 
13.6795631,100.6242603,The Excel Udomsuk 
13.7834711,100.6730551,Lumpini Condotown Nida-Sereethai 2 
13.6728815,100.6370031,Lumpini Place Bangna Km.3 
13.7403573,100.566057,Royce Private Residences 
13.7416567,100.5621259,Asoke Place 
13.7315931,100.5846804,Park Origin Thonglor 
13.8894106,100.5751331,Motive Condo Chaengwattana 
13.7554657,100.5328544,Phayathai​ Plaza​ 
13.7369818,100.5752348,Prime Mansion Promsri 
13.6787801,100.6160598,Elio Del Nest 
13.8296482,100.5334624,Centric Scene Ratchavipha 
13.6967948,100.5326433,Lumpini Place Ratchada-Sathu 
13.7555608,100.4809951,Aroon Condominium 
13.7061192,100.5305541,Fuse Chan - Sathorn 
13.7720954,100.5715785,Groove Muse Ratchada 7 
13.7407514,100.5998087,The Tree Sukhumvit 71-Ekamai 
13.7116738,100.615075,Baan Chom Dao 
13.7392802,100.6036201,The Leaf 
13.7702655,100.5292865,Rama VI Mansion 
13.7742327,100.4846279,Thana Tri 
13.8254768,100.5451453,Regent Home 6 Prachacheun 
13.7891153,100.5523045,Sense Phaholyothin 
13.7235018,100.6042409,The Pillar 
13.7250689,100.5331296,Condolette Light Convent 
13.7087572,100.451565,Metro Park Sathorn Phase 1 
13.747028,100.541019,Pandao Place 
13.659996,100.427458,Smart Condo at Rama 2 
13.7899222,100.5910033,Dsign Ratchada 
13.7268313,100.5833307,Regent On The Park 2 
13.734833,100.5569594,Venio Sukhumvit 10 
13.6963243,100.5446661,The Breeze Narathiwas 
13.727788,100.5245627,The Surawong 
13.7025876,100.5939415,The Roof Garden Onnut 
13.7117596,100.607285,Lumpini Ville Sukhumvit 77-2 
13.7556507,100.5658479,Ideo Mobi Rama 9 
13.7415723,100.5669196,FYNN Sukhumvit 31 
13.6870645,100.6059733,Mayfair Place Sukhumvit 64 
13.7220498,100.4958744,Ideo Blucove Sathorn 
13.7418908,100.5438562,Sindhorn Lumpini (Langsuan) 
13.837108,100.5835053,D'Mura Phahol - Kaset 
13.7271421,100.527213,M Silom 
13.8402715,100.579749,Supalai Park Kaset 
13.714273,100.5932149,Le Luk Condominium 
13.7210801,100.5259034,Anil Sathorn 12 
13.7514148,100.5280989,Wish @ Siam 
13.767109,100.7353351,Khaha Rom Klao 
13.7369466,100.543675,Baan Ploenchit 
13.7212221,100.5776805,Plus 38 Hip 
13.7696872,100.5699795,Srivara Mansion 
13.7543879,100.5610206,The Mark Ratchada-Airport Link 
13.7348503,100.5410169,Klass Sarasin-Rajdamri 
13.7593079,100.6173797,Modiz Rhyme Ramkhamhaeng 
13.7294285,100.5842332,The Reserve Sukhumvit 61 
13.706596,100.5981059,The Link Sukhumvit 50 
13.7402135,100.5409369,Hansar Rajdamri 
13.7618974,100.6409042,Lumpini Ville Ramkhamhaeng 44 
13.66544,100.4329908,Serrano Condominium Rama II 
13.7253983,100.5709905,The Seed Musee 
13.7406347,100.5491501,Maestro 02 Ruamrudee 
13.7248535,100.5766336,Keyne 
13.8121895,100.5208307,Chapter One Shine Bang Po 
13.7277475,100.5358725,Silom Grand Terrace 
13.67555,100.51712,Chapter One Ratburana 33 
13.7806953,100.4754048,Lumpini Park Pinklao 
13.7317104,100.5615789,Lake Avenue Sukhumvit 16 
13.7322117,100.5836522,Hampton Thonglor 10 
13.6842783,100.488207,Lumpini Ville Suksawat - Rama 2 
13.7498789,100.6123191,Tempo One Ramkamhaeng-Rama 9 
13.7290712,100.4944376,Supalai Loft Prajadhipok - Wongwian Yai 
13.7002013,100.6084678,Regent Home 19 Sukhumvit 93 
13.7036259,100.5992739,The Next Garden Suite 
13.7225918,100.5337768,125 Sathorn 
13.8019564,100.5750056,Nue Noble Ratchada - Lat Phrao 
13.7484203,100.588792,Brighton Place 
13.7504549,100.5388587,The Platinum 
13.8109413,100.5644743,Metris Ladprao 
13.7401562,100.5799573,Villa Sikhara 
13.7842112,100.5726318,Metro Luxe Ratchada 
13.7000419,100.5357145,Condo One X Sathorn-Narathiwat 
13.8141352,100.5636973,Exclusive Place 
13.6757253,100.6040945,Regent Home 7/2 Sukhumvit 
13.7413804,100.5493226,Athenee Residence 
13.7528406,100.5338483,Ideo Q Ratchathewi 
13.7819633,100.5433453,Noble Reflex 
13.7108213,100.3829924,Lumpini Park Phetkasem 98 
13.7206227,100.7184673,IRIS Avenue 
13.7121525,100.5886928,Siamese Exclusive 42 
13.7827372,100.5416299,Centurion Park 
13.7530501,100.5308926,Condolette Ize Ratchathewi 
13.7393408,100.568385,Via 31 
13.7187931,100.5328196,Rhythm Sathorn - Narathiwas 
13.7568954,100.5602198,A Space ID Asoke-Ratchada 
13.7394659,100.5673882,Prime Mansion Sukhumvit 31 
13.6869795,100.5159216,Riverside Villa Condominium 2 
13.7351453,100.5852058,Thonglor Tower 
13.8103086,100.5652324,The Light Ladprao 
13.737262,100.4341806,Lumpini Ville Ratchaphruek - Bang Waek 
13.855979,100.5849928,CIELA Sripatum 
13.7072953,100.4965461,Supalai River Resort 
13.8459804,100.5793836,The Key Phahonyothin 
13.7625375,100.5916797,Leticia Rama 9 
13.7186343,100.5127848,The Rich Sathorn Wongwian Yai 
13.8491478,100.6051243,Lumpini Condo Town Raminthra-Latplakhao 2 
13.7919325,100.5587609,Royal Tower 3 
13.7839954,100.4963643,Urbano Rajavithi 
13.7751564,100.5716087,Emerald Residence Ratchada 
13.7892472,100.5640014,Fuse Miti Ratchada-Sutthisan 
13.7139359,100.4410086,Bangkok Horizon Ratchada-Thapra 
13.8120179,100.6196136,I-Zen Ekamai-Ramindra 
13.736971,100.5499443,Navin Court 
13.7221183,100.5170773,Nusa State Tower Condominium 
13.8630567,100.6162151,Premio Fresco 
13.8114208,100.5605648,The Saint Residences 
13.8061047,100.5223715,Chewathai Residence Bang Pho 
13.7898806,100.573567,Centric Ratchada-Suthisan 
13.7775559,100.6410809,Lumpini Center Happyland 
13.7767128,100.6623146,Incio Serithai 
13.7732286,100.6390608,Assagarn Place Ladprao 85 
13.7635856,100.6492174,The LIVIN Ramkhamhaeng 
13.786642,100.5732439,Quinn Condo Ratchada 
13.8108019,100.5657396,Ideo Ladprao 5 
13.7889556,100.5454564,Rhythm Phahol-Ari 
13.7097902,100.4794742,U Delight@Talat Phlu Station 
13.8167455,100.5493011,Premsiri Boutique Park 
13.8235226,100.588036,Felic Condo Ladprao Wanghin 79 
13.7257918,100.5267936,Dusit Parkside 
13.7517942,100.6286624,ABAC Condo Town 
13.8058829,100.5565411,The Line Jatujak - Mochit 
13.748341,100.5666073,My Resort Bangkok 
13.72121,100.7211156,D Condo Onnut-Suvarnabhumi 
13.7636312,100.6405153,Living Nest Ramkhamhaeng 
13.7613399,100.6399225,Namchoke Condominium 
13.7053668,100.5972717,Fair Tower 
13.766004,100.6123156,Thepleela Condo Town 
13.7060486,100.6701391,iCondo Greenspace Phatthanakan-Srinakarin 
13.7197205,100.5881907,Chaiyapruk Place 
13.7388102,100.5544182,Saranjai Mansion 
13.7420051,100.5580817,15 Sukhumvit Residences 
13.7025515,100.5421643,Supalai Lite Ratchada Narathiwas 
13.723233,100.5611192,Siamese Exclusive Queens 
13.8163044,100.562784,M Ladprao 
13.6987167,100.5393748,Lumpini Suite Ratchada-Rama III 
13.6810334,100.610778,City Home Srinakarin 
13.7869796,100.5785795,Ratchada Orchid 
13.6757253,100.6040945,Regent Home 7 Sukhumvit 
13.7860581,100.546088,Centric Scene Phaholyothin 9 
13.722605,100.526039,Sathorn Residence 
13.7097679,100.5117896,Rhythm Charoenkrung Pavillion 
13.7132434,100.6346902,A Space Me Sukhumvit 77 
13.6851979,100.6041199,Elio Sukhumvit 64 
13.7696872,100.5699795,Srivara Mansion 1 
13.6781141,100.5470401,Supalai Riva Grande 
13.8089672,100.5653829,The Unique 10 
13.7291724,100.5934854,The Ace Ekamai 
13.6781141,100.5470401,Supalai Premier Ratchada-Narathiwas-Sathorn 
13.7358937,100.5487962,Preen By Sansiri 
13.7246304,100.5485166,The Crown Rama 4 - Sathon 
13.7779865,100.574488,Rhythm Ratchada - Huai Khwang 
13.7140326,100.6021285,Hasu Haus 
13.754693,100.5668766,Aspire Rama 9 
13.7105114,100.5030791,Supalai River Place 
13.7361932,100.5571654,Sukhumvit Park 
13.7193376,100.5277386,Pikul Place 
13.6744863,100.4581891,Origins Bangmod-Rama 2 
13.8054691,100.5251733,The Tree Interchange 
13.7369206,100.5508419,The Crest Ruamrudee 
13.7391444,100.550705,The Tempo Ruamrudee 
13.7854311,100.4697343,The Trust Residence Pinklao 
13.7231358,100.5611633,Wyndham Bangkok Queen Convention Centre 
13.7424402,100.5441284,Scope Lang Suan 
13.7559009,100.5623029,KnightsBridge Space Rama 9 
13.6626919,100.611825,OKAS Sukhumvit 105 
13.7257848,100.5619661,Trapezo Sukhumvit 16 
13.8288684,100.5699921,Mazarine Ratchayothin 
13.8029935,100.5618331,Condo U Vibha - Ladprao 
13.7131975,100.6144525,Floraville Condominium 
13.717822,100.4834803,The Room Sathorn-Taksin 
13.7447055,100.5629795,Supalai Premier Place Asoke 
13.76657,100.5627038,Kes Ratchada 
13.6952537,100.6228171,The Green 2 
13.7401256,100.5590595,Grand Ville House 2 
13.6788723,100.4683385,The Niche ID - Rama 2 
13.6701924,100.4368478,Ease 2 
13.7206641,100.4941214,The Room BTS Wongwian Yai 
13.704441,100.6021342,Ideo Mobi Sukhumvit 81 
13.7196759,100.4594202,The President Sathorn-Ratchaphruek 3 
13.7581834,100.5716019,Lumpini Place Rama IX-Ratchada 
13.7455501,100.5512597,Ruenrudee Condominium 
13.7396346,100.5416618,Regent Royal Place 2 [Leasehold] 
13.7213559,100.541522,The Sukhothai Residences 
13.6862485,100.6124885,Whizdom Connect Sukhumvit 
13.7206227,100.5211907,Baan Siri Silom 
13.724577,100.5847708,Maru Ekkamai 2 
13.66019,100.611272,Villa Lasalle 
13.7291494,100.5780392,The Habitat Sukhumvit 53 
13.8064053,100.5329211,Ideo Mobi Bangsue Grand Interchange 
13.7263024,100.5268744,Ashton Silom 
13.8106619,100.5963506,Tara Ruankaew 
13.722701,100.5257043,The Address Sathorn 
13.7074962,100.4211335,Lumpini Condo Town Bangkhae 
13.6791683,100.4684885,Niche ID Rama 2 
13.7565978,100.5407766,The Room Phayathai 
13.8073166,100.5689948,Four Street Mansion 
13.8101866,100.5668903,Z 2 Condominium 
13.7633693,100.5634367,Groove Ratchada - Rama 9 
13.7470014,100.5564092,Sukhumvit City Resort 
13.8372943,100.5838298,MAXXI Condo Ratchayothin-Phaholyothin 34 
13.8231767,100.5629152,Bangkok Feliz Vibhavadi 30 
13.7195089,100.5194916,Noble Revo Silom 
13.7251771,100.5821507,Le Premier 2 
13.7129064,100.4319322,Supalai Veranda Phasi Charoen Station 
13.7760915,100.544632,The Tempo Phaholyothin 
13.7340869,100.5712067,Noble State 39 
13.7359391,100.5435275,The Residences at Sindhorn Kempinski Hotel Bangkok [Leasehold] 
13.72178,100.588568,D65 Condominium 
13.8228883,100.5322625,Rich Park @ Bangson Station 
13.7259656,100.5671581,Le Raffine Sukhumvit 24 
13.7177325,100.5478851,Maestro 01 Sathorn-Yenakat 
13.7426719,100.5733672,Supalai Place 
13.730796,100.571206,Vittorio 39 
13.6836138,100.5491864,Lumpini Place Narathiwas-Chaopraya 
13.7542622,100.6473491,Fourwings Residence 
13.7867859,100.5483872,Chateau In Town Phaholyothin 14-2 
13.7758184,100.5639831,T.V.C. Condominium 
13.729653,100.474163,The Estate at Thapra 
13.7332332,100.5294427,Chamchuri Square Residence 
13.7314089,100.598005,The Winning Tower 
13.72085,100.50272,Bangkok Feliz At Krungthonburi Station 
13.7461389,100.5621168,Sukhumvit Living Town 
13.7218721,100.5439502,Baan Nunthasiri 
13.738603,100.572688,Prime Mansion Phromphong 
13.8251689,100.5666173,KnightsBridge Prime Ratchayothin 
13.7279575,100.5841284,Baan Ananda 
13.7310461,100.5862552,The Alcove Thonglor 10 
13.7428816,100.5574566,Sukhumvit Suite 
13.7303713,100.5071619,Supalai Premier Charoen Nakon 
13.7424537,100.5854359,The Bangkok Thonglor 
13.8307109,100.5252827,Aspire Ratchada - Wongsawang 
13.7722806,100.483368,Plum Condo Pinklao Station 
13.7117596,100.607285,Lumpini Ville Sukhumvit 77 - 2 
13.7053068,100.6091921,Regent Home 4 
13.7486257,100.6204726,CYBIQ Ramkhamhaeng 
13.7344276,100.5442209,Sindhorn Tonson [Leasehold] 
13.810544,100.56624,The Tree Ladprao 15 
13.7323264,100.5256293,Vertiq 
13.7216846,100.5001835,The Master Sathorn Executive 
13.8127505,100.520882,Chapter One Flow 
13.7681494,100.6706504,Baan Nantawan Sakuldee 
13.760893,100.536221,M Phayathai 
13.7209083,100.5790656,Ideo Morph 38 
13.74034,100.5553074,Q1 Sukhumvit 
13.7033394,100.5401927,The Complete Narathiwat 
13.8176251,100.5662592,The Line Phahonyothin Park 
13.7064266,100.5058885,Menam Residences 
13.7111778,100.6024961,The Base Sukhumvit 77 
13.690418,100.489291,Lumpini Ville Ratburana Riverview 2 
13.7716212,100.5760011,Supalai City Homes Ratchada 10 
13.8726153,100.6037147,Lumpini Condo Town Ramintra - Laksi 
13.7122006,100.5494414,The Lanai Sathorn 
13.7352407,100.4738143,T.P. Condo Town 
13.6857013,100.6110907,Whizdom 101 
13.7373385,100.5833636,Ivy Thonglor 
13.6789187,100.6111906,Ideo Mix Sukhumvit 103 
13.721776,100.5026132,Hive Sathorn 
13.8320908,100.6138722,Premio Prime 
13.7970244,100.5519849,Notting Hill Jatujak Interchange 
13.7848455,100.5722105,Chateau In Town Ratchada 17 
13.6914293,100.617443,@ City Sukhumvit 101 
13.7594106,100.5355632,Park Origin Phayathai 
13.7693232,100.5405748,The Monument Sanampao 
13.7139359,100.4410086,Bangkok Horizon Petchkasem 
13.7643056,100.6510556,Origin Plug & Play Ladprao Interchange 
13.7170832,100.6546907,Lumpini Ville On Nut - Phatthanakan 
13.6865027,100.6055141,The Link Sukhumvit 64 
13.713931,100.5894229,Ficus Lane 
13.7006451,100.5363171,Fortune Condo Town 
13.738213,100.566312,Siamese Exclusive Sukhumvit 31 
13.7941723,100.5885081,Family Park 
13.7108077,100.4493569,Metro Park Sathorn Phase 2/2 
13.9242969,100.5978171,JW Condo at Donmuang 
13.7396495,100.48385,Niche MONO Itsaraphap 
13.7141019,100.5136585,Bangrak Condominium 
13.7434356,100.5616355,Grand Park View Asoke 
13.7387314,100.5439698,Sindhorn Residence [Leasehold] 
13.7285808,100.5711148,The Estelle Phrom Phong 
13.6729642,100.6343485,NS Tower Central City Bangna 
13.7489504,100.5276954,Condo One Siam 
13.8157198,100.5781808,Ivory Ratchada-Ladprao 
13.8382154,100.5740087,Bridge Phaholyothin 37 
13.7486406,100.5295741,Baan Kasemsan 1 
13.7373222,100.5559172,Siam Penthouse 1 
13.7630961,100.5647644,Maestro 03 Ratchada-Rama 9 
13.7029662,100.5053686,Notting Hill The Exclusive CharoenKrung 
13.715638,100.5469682,Sathorn Plus On The Pond 
13.8334808,100.6628177,Sinthanee Residence Tower 
13.7386565,100.5615079,Ashton Asoke 
13.663853,100.6132453,Siam Condotown 1 
13.7252487,100.5763247,The Crest Sukhumvit 34 
13.6842304,100.6146022,S&S Sukhumvit Condominium 
13.7930508,100.601358,Wynn Chokchai 4 
13.7629161,100.6494983,Lumpini Ville Ramkhamhaeng 60/2 
13.8060783,100.5296512,Chewathai Interchange 
13.7123076,100.5102575,Four Seasons Private Residences [Leasehold] 
13.7320089,100.5707351,The XXXIX By Sansiri 
13.7126781,100.4643205,Aspire Sathorn-Taksin 
13.7718401,100.5796085,Chapter One ECO Ratchada - Huaikwang 
13.7330358,100.5820438,TELA Thonglor 
13.7996324,100.5971794,Be You Chokchai 4 
13.7025543,100.600083,Tree Condo LUXE Sukhumvit 52 
13.7329035,100.5823577,Khun By Yoo 
13.8204344,100.5235983,Pornpiya Mansion 
13.7619209,100.6400746,Knightsbridge Collage Ramkhamhaeng 
13.7015144,100.5945153,Define by Mayfair Sukhumvit 50 
13.7225649,100.4957306,My Condo Sathorn-Taksin 
13.711592,100.6046283,Artemis Sukhumvit 77 
13.7438921,100.5870156,The Capital Ekamai - Thonglor 
13.7073172,100.6331248,Baan Suan Sukhumvit 
13.680003,100.6135567,Udomsuk Tower 
13.7475742,100.6067533,Metris Rama 9-Ramkhamhaeng 
13.7289661,100.5916977,Taka Haus 
13.7216579,100.5804701,Condo One Thonglor 
13.7631804,100.5464742,Lumpini Suite Dindaeng-Ratchaprarop 
13.7151341,100.5878572,Tree Condo Sukhumvit 42 
13.896595,100.609132,Sena Kith BTS Saphanmai 
13.7588017,100.5420514,The Complete Rajprarop 
13.664737,100.6067904,Dolce Lasalle 
13.7899623,100.5700394,Ideo Ratchada - Sutthisan 
13.741644,100.5753215,Verde Sukhumvit 49/15 
13.8045746,100.5784729,Ables Ladprao 27 
13.7556667,100.5663737,Condolette Midst Rama 9 
13.7769739,100.5604333,Vela De Condo UTCC - Vipawadee 2 
13.7889383,100.5035996,Ideo Charan 70 - Riverview 
13.743603,100.5612816,The Room Sukhumvit 21 
13.7124894,100.5953276,Zenith Place Sukhumvit 
13.7996904,100.5737516,Condo One Ratchada-Ladprao 
13.7429836,100.5838819,Chapter Thonglor 25 
13.7054025,100.597444,Serio Sukhumvit 50 
13.7652956,100.5673912,Amanta Ratchada 
13.6996597,100.5371801,Belle Park Residence 
13.7329904,100.5726921,Ashton Residence 41 
13.8376743,100.5814735,Supalai Cute Ratchayothin - Phaholyothin 34 
13.7416746,100.546935,98 Wireless 
13.7484269,100.5659145,Ideo Mobi Asoke 
13.7484022,100.562828,Q Asoke 
13.6623817,100.650054,Evergreen View Tower 
13.7714562,100.5836714,Lumpini Ville Cultural Center 
13.741023,100.5576678,The Trendy Condominium 
13.7348076,100.5215056,Park Origin Chula Samyan 
13.7241538,100.5282926,The Ritz-Carlton Residences At MahaNakhon 
13.7128036,100.4678668,The Tempo Grand Sathorn-Wutthakat 
13.8314488,100.5754463,Chateau In Town Major Ratchayothin 2 
13.7023193,100.5990213,Residence 52 
13.7136955,100.4670416,J Condo Sathorn - Kallaprapruk 
13.7878269,100.5041896,Bangkok River Marina 
13.721821,100.5267551,Silom Suite 
13.6872636,100.606703,Sari by Sansiri 
13.7173529,100.5305938,Quad Sathon 
13.7621407,100.5371527,Ideo Q Victory 
13.7987993,100.5761821,Rhythm Ratchada 
13.6654787,100.6041967,Ideo Mobi Sukhumvit Eastgate 
13.8949828,100.6119467,WynnCondo 
13.7962392,100.5886515,The Niche Ladprao 48 
13.7710648,100.614025,Chaya Villa 
13.7196032,100.5621306,Life Rama 4 - Asoke 
13.7244622,100.5803761,Laviq Sukhumvit 57 
13.8412604,100.5486916,Baan Prachaniwet 1 
13.7294496,100.5716429,The Madison 
13.7524537,100.5348707,Ideo Q Siam-Ratchathewi 
13.7251143,100.5747969,Tidy Deluxe Sukhumvit 34 
13.8185865,100.679809,Blossom Condo@Fashion Altitude 
13.6648923,100.6371263,Niche Mono Peak Bangna 
13.730239,100.5628926,Millennium Residence 
13.8117375,100.6671876,Parc Exo Condominium 
13.7386748,100.5652324,Walden Asoke Sukhumvit 23 
13.7119664,100.5468341,Lapa Place 
13.802433,100.5808353,The Next Ladprao 
13.8371824,100.6055801,Baan Pueng Luang 
13.6919108,100.6032697,The Unique Sukhumvit 62/1 
13.7958813,100.5996527,Chewathai Hallmark Ladprao-Chokchai 4 
13.7546154,100.5346653,Pathumwan Resort 
13.7766526,100.5815915,G STYLE CONDO 
13.6797874,100.6071209,Abstracts Sukhumvit 66/1 
13.6979862,100.6067954,Casa Condo Sukhumvit 97 
13.7972244,100.5851555,Groove Ratchada - Ladprao 
13.7474902,100.5583741,Baan Siri Sukhumvit 13 
13.8881237,100.6105056,The Origin Phahol - Saphanmai 
13.7614609,100.6327185,Chewathai Ramkamhaeng 
13.7005999,100.5164468,The Key Sathon-Charoen Rat 
13.7374228,100.5678526,Newland Condominium 
13.7783517,100.5465974,SAVVI Phahol - Ari 
13.7307227,100.5322962,Culture Chula 
13.730524,100.5756169,49 Plus 
13.7178692,100.4538443,Chewathai Phetkasem 27 
13.7392542,100.5856948,Baan Chan 
13.7794093,100.5759497,Amaranta Residence 
13.7726496,100.4775952,Ratanakosin Island 
13.7286497,100.4529079,Ratchapruek Condo 
13.7074192,100.5266705,The Room Sathorn-St.Louis 
13.8456344,100.5645427,The Selected Kaset-Ngam Wongwan 
13.7493335,100.5434243,Manhattan Chidlom 
13.7579062,100.7940923,V Condo Lat Krabang 
13.7542839,100.5751263,TC Green Rama 9 
13.7387665,100.5870911,DLV Thonglor 20 
13.8412064,100.5871886,Metro Luxe Kaset 
13.6756714,100.6379626,I CONDO Sukhumvit 103 
13.806292,100.600252,J.W. Suite 
13.7865584,100.5552112,Paholyothin Park 
13.6910654,100.614025,Siamese Sukhumvit 87 
13.7128516,100.5942398,Wyne Sukhumvit 
13.7433748,100.5585098,Wattana Suite 
13.7241058,100.5321855,Silom City Resort 
13.7231422,100.5203031,Jewelry Trade Center 
13.8198451,100.6626237,Chambers Ramintra 
13.8607302,100.7111334,Burasiri Panyaindra 
13.7065175,100.5995047,Rhythm Sukhumvit 50 
13.7199501,100.539443,The Seed Mingle 
13.8410359,100.5892495,iCondo Kaset-Nawamin 
13.8222977,100.535829,Metro Sky Prachachuen 
13.7004048,100.6452083,The Trio Garden 
13.7166838,100.4761926,Regent Orchid TalatPhlu 
13.8873958,100.5689948,Lak Si National Housing 
13.7670265,100.5787879,Supalai Wellington 
13.725694,100.5707135,Condolette Dwell Sukhumvit 26 
13.7537736,100.4666033,Supalai Loft Yaek Fai Chai station 
13.8171177,100.5635653,Life Ladprao 
13.6626186,100.6081638,The Excel Bearing 
13.735464,100.5833498,Noble Form Thonglor 
13.702263,100.5892075,Modiz Sukhumvit 50 
13.7659541,100.4964572,Juldis River Mansion 
13.7918488,100.5013501,Modern Condo Bangplad-Charan79 
13.7604098,100.5553479,Casa Condo Asoke-Dindaeng 
13.7176401,100.5245798,Flawless Sathorn Residence 
13.7401414,100.5850628,Noble Solo 
13.7882596,100.5427145,The Crest Phahonyothin 11 
13.7791022,100.5412282,Le Rich at Aree Station 
13.7586418,100.5915731,Royal Nine Residence 
13.7043506,100.4220749,The Niche ID Bangkhae 
13.7618513,100.5940908,Niche Mono Rama 9 
13.7400215,100.5897075,C Ekkamai 
13.8043806,100.5109016,City Home Ratchada-Pinklao 
13.7192956,100.5846138,Nusasiri Grand 
13.7325676,100.4671197,UNiO Charan 3 
13.7173814,100.5999507,PP Plus Sukhumvit 71 
13.7248549,100.5293628,Diamond Tower 
13.7478626,100.5487645,Life One Wireless 
13.7550545,100.5837741,Landmark @MRTA Station 
13.7786705,100.5423326,The Vertical Aree 
13.7475615,100.5581926,Interlux Premier Sukhumvit 13 
13.7639356,100.6157779,LIB Condo Ramkhamhaeng 43/1 
13.8287344,100.5262823,The Line Wongsawang 
13.7179915,100.5876295,Mulberry Grove Sukhumvit 
13.8385151,100.5747161,Chapter One The Campus Kaset 
13.6859937,100.6122144,Whizdom Essence 
13.779689,100.544646,Life At Phahon - Ari 
13.7737565,100.4906762,Supalai City Resort Rama 8 
13.7115122,100.5947752,Life Sukhumvit 48 
13.7825776,100.5460931,Onyx Phaholyothin 
13.7838204,100.4940017,Brix Condominium Charan 64 
13.6609307,100.5994061,Deco Condominium 
13.7341928,100.5662527,Le Raffine Jambunuda Sukhumvit 31 
13.738848,100.5835481,Art @Thonglor 25 
13.7237914,100.5620048,Monterey Place 
13.7259575,100.5309879,The Oasis 
13.7298223,100.5816218,HQ By Sansiri 
13.7292864,100.5858317,Rhythm Ekkamai Estate 
13.7370892,100.5761285,SCOPE Promsri 
13.7108046,100.4204593,Lumpini Ville Bangkae 
13.7236151,100.5328196,Pipat Place 
13.748368,100.5870372,The Remarkable Soonvijai 2 
13.703485,100.590717,S Condo Sukhumvit 50 
13.8364917,100.6616756,Lumpini Condo Town Ramintra - Nawamin 
13.7119987,100.5844491,Aspire Rama 4 
13.7345269,100.5847536,The Clover 
13.750061,100.5560143,Circle Living Prototype 
13.6891012,100.6086196,Hue Sukhumvit 
13.720264,100.5457077,Baan Sathorn 
13.7130189,100.6049814,Lumpini Ville Sukhumvit 77 
13.7362194,100.5569218,Sukhumvit Casa 
13.7443103,100.5740488,Quintara Phume Sukhumvit 39 
13.7586977,100.5352806,Noble House Phayathai 
13.688645,100.5096557,Salintara 
13.692953,100.6075763,PITI SUKHUMVIT 101 
13.7278588,100.5814063,Quattro By Sansiri 
13.7167993,100.4825423,Ideo Sathorn - Thaphra 
13.7099545,100.5139355,Altitude Symphony Charoenkrung 
13.7154113,100.4648064,Elio Sathorn-Wutthakat 
13.6762095,100.6432699,The Executive Bangna 
13.7234684,100.4962117,The Seed Sathorn-Taksin 
13.7899025,100.5832266,Humble Living At FueangFu 
13.7477607,100.5565344,Kallista Mansion 
13.7910897,100.5630946,Chateau In Town Vibhavadi 10 
13.7926084,100.5396455,Green Peace Mansion 
13.6761655,100.5186108,Chapter One Modern Dutch 
13.7071586,100.634162,Lumpini Ville Onnut 46 
13.7553297,100.5673371,Ideo Rama 9 - Asoke 
13.7404168,100.6021185,The Tree Pattanakarn - Ekkamai 
13.7718078,100.5776208,Supalai City Resort Ratchada-Huaykwang 
13.7039946,100.5996251,Condo One Sukhumvit 52 
13.7210858,100.441062,The Great Condo Petchkasem 48 
13.715897,100.5748618,Oka Haus 
13.7386214,100.5840907,Icon I 
13.8957835,100.5521087,Supalai City Resort Ratchayothin - Phaholyothin 32 
13.7223608,100.523323,The Room Sathorn-TanonPun 
13.8167455,100.5493011,Baan Suanthon Ratchada 
13.8775452,100.5947432,Regent Home 18 
13.7326181,100.5739558,H Sukhumvit 43 
13.7467359,100.5627624,The Lofts Asoke 
13.8387093,100.5587316,U Delight Ratchavibha 
13.7063243,100.6081263,Regent Home Sukhumvit 81 
13.7240903,100.5796558,The Strand Thonglor 
13.7887042,100.5537126,Lumpini Selected Sutthisan - Saphankwai 
13.6595056,100.6310112,Icondo Sukhumvit 105 
13.8589622,100.6539306,We Condo Ekkamai-Raminthra 
13.7312848,100.584784,Origin Thonglor World 
13.7372672,100.6237683,Lumpini Ville Pattanakarn - Srinakarin 
13.7370732,100.6419432,Lumpini Place Srinakarin 
13.726316,100.5738187,Belgravia Residences 
13.7859735,100.5848249,Asher Ratchada-Huai Khwang 
13.6667218,100.6510375,The Parkland Bangna 
13.7221586,100.5250598,Sampoom Garden 
13.7083558,100.5990861,Diamond Sukhumvit 
13.701763,100.6002727,The Tree Onnut Station 
13.8029731,100.576197,The Room Ratchada-Ladprao 
13.8048771,100.5699192,Condo One Ladprao 18 
13.7969923,100.6388018,Anna Condominium 
13.8907905,100.5862783,DEN Vibhavadi 
13.7450623,100.5822258,The Base Phetchaburi-Thonglor 
13.7388668,100.5803399,Nivati Thonglor 23 
13.8074546,100.5701187,Life Ladprao 18 
13.7454847,100.5624048,Asoke Towers 
13.7466057,100.6059912,The BASE Garden Rama 9 
13.7223639,100.50856,The Light House 
13.7216126,100.5765474,Baan Sukhumvit 36 
13.7138433,100.4781025,Whizdom Station Ratchada-Thapra 
13.6833404,100.5376675,D Condo Sathu Pradit 49 
13.7771892,100.6197845,Le Champs 
13.7265769,100.5882742,Phatsana Garden 
13.7460253,100.6017647,Fuse Mobius Ramkhamhaeng Station 
13.7485723,100.5616862,Villa Asoke 
13.7101161,100.6022147,KnightsBridge Prime Onnut 
13.7481429,100.545987,The Address Chidlom 
13.7263873,100.5836488,The Bangkok Sukhumvit 61 
13.6555471,100.6090938,Notting Hill Sukhumvit 107 
13.716981,100.5799881,The Room Sukhumvit 38 
13.7168582,100.4584306,Aspire Sathorn - Ratchaphruek 
13.7313035,100.5310158,Ashton Chula-Silom 
13.6847282,100.6110631,Issara At 42 Sukhumvit 
13.7562914,100.5424251,The Capital Ratchaprarop-Vibha 
13.7127392,100.5331421,Bangkok Horizon Sathorn 
13.6820578,100.492616,Flexi Suksawat 
13.7354879,100.5404591,The Private Residence Rajdamri 
13.740523,100.555434,The Rich Ploenchit - Nana 
13.7894801,100.5466353,Haven Phaholyothin 
13.7709777,100.6081997,J.W. Boulevard Srivara 
13.7160864,100.5831455,Tree Condo Ekamai 
13.8103711,100.5674706,Formosa Ladprao 7 
13.72101,100.5371289,Supalai Elite Sathorn - Suanplu 
13.7218702,100.576904,Rhythm Sukhumvit 36-38 
13.7365635,100.5630916,Edge Sukhumvit 23 
13.7294461,100.5729058,Acadamia Grand Tower 
13.8311184,100.5602798,Vantage Ratchavipa 
13.7110574,100.5348869,Lumpini Place Sathorn 
13.7268423,100.5734519,The Waterford Diamond 
13.7746225,100.5740066,Diamond Ratchada 
13.7152906,100.5155501,The Bangkok Sathorn 
13.7371102,100.5685765,D.S. Tower 1 Sukhumvit 33 
13.686699,100.5144588,Riverside Villa Condominium 1 
13.7867356,100.5717854,The Kris Extra 7 
13.8112371,100.5785355,Ratchada Pavilion 
13.7175172,100.4770329,Life @ Thaphra 
13.7926182,100.6174578,Ban Suan Sue Trong 
13.7138231,100.5904568,Vinn Sukhumvit 46 
